cod_estacion,nombre,tipo,latitud,longitud,activa,fecha,indice,debido_a
1022001,EL CIEGO,TRAFICO,42.51833,-2.61944,true,2025-09-30T07:00:00,1,O3
1036004,LLODIO,TRAFICO,43.14407,-2.96337,true,2025-09-30T07:00:00,1,PM2.5
1051001,AGURAIN,FONDO,42.849,-2.3937,true,2025-09-30T07:00:00,1,PM2.5
1055001,VALDEREJO,FONDO,42.8752,-3.2317,true,2025-09-30T07:00:00,20,O3
1059008,AVENIDA GASTEIZ,TRAFICO,42.8548,-2.6807,true,2025-09-30T07:00:00,2,NO2
1059009,TRES MARZO,TRAFICO,42.85607,-2.66779,true,2025-09-30T07:00:00,1,PM2.5
1059012,LOS HERRAN,TRAFICO,42.84361,-2.66139,true,2025-09-30T07:00:00,1,NO2
2003001,ALBACETE,FONDO,38.9793,-1.8521,false,2025-09-30T07:00:00,,
2003002,ALBACETE - PARQUE TECNOLOGICO,FONDO,38.9808,-1.8452,true,2025-09-30T07:00:00,20,O3
3002002,AGOST,INDUSTRIAL,38.43606,-0.63804,false,2025-09-30T07:00:00,0,
3009006,ALCOI - VERGE DELS LLIRIS,FONDO,38.70639,-0.46694,true,2025-09-30T07:00:00,20,O3
3014006,ALACANT-EL PLÁ,TRAFICO,38.35944,-0.47194,true,2025-09-30T07:00:00,20,O3
3014008,ALACANT-FLORIDA-BABEL,FONDO,38.34028,-0.50667,true,2025-09-30T07:00:00,20,NO2
3014009,ALACANT - RABASSA,INDUSTRIAL,38.35111,-0.51389,true,2025-09-30T07:00:00,20,O3
3031002,BENIDORM,FONDO,38.57139,-0.14667,true,2025-09-30T07:00:00,2,O3
3065006,ELX-AGROALIMENTARI,FONDO,38.24222,-0.68278,true,2025-09-30T07:00:00,20,O3
3065007,ELX-PARC DE BOMBERS,TRAFICO,38.25917,-0.7175,true,2025-09-30T07:00:00,20,O3
3066003,ELDA-LACY,FONDO,38.45472,-0.80333,true,2025-09-30T07:00:00,10,O3
3099002,ORIHUELA,FONDO,38.08472,-0.85278,true,2025-09-30T07:00:00,10,O3
3105001,EL PINÓS,FONDO,38.45167,-1.06472,true,2025-09-30T07:00:00,20,O3
3133002,TORREVIEJA,TRAFICO,37.99111,-0.69,true,2025-09-30T07:00:00,2,O3
3140001,VILLENA PARQUE FERIA,FONDO,38.63943,-0.87241,true,2025-09-30T07:00:00,2,O3
4013004,MEDITERRÁNEO,TRAFICO,36.84133,-2.44672,true,2025-09-30T07:00:00,2,NO2
4013005,EL BOTICARIO,FONDO,36.86495,-2.3905,true,2025-09-30T07:00:00,2,NO2
4013006,PUERTO DE ALMERÍA,INDUSTRIAL,36.8368,-2.4779,false,2025-09-30T07:00:00,0,
4022001,BÉDAR,FONDO,37.19299,-1.97908,true,2025-09-30T07:00:00,2,O3
4024001,BENAHADUX,INDUSTRIAL,36.9231,-2.46322,true,2025-09-30T07:00:00,10,O3
4032005,PZA. DEL CASTILLO,INDUSTRIAL,36.9968,-1.8954,true,2025-09-30T07:00:00,1,PM10
4032006,LLANO DE DON ANTONIO,INDUSTRIAL,37.0047,-1.9344,false,2025-09-30T07:00:00,,
4035002,PALOMARES,INDUSTRIAL,37.255,-1.7817,false,2025-09-30T07:00:00,,
4064001,MOJÁCAR,FONDO,37.1388,-1.8422,false,2025-09-30T07:00:00,,
4066003,RODALQUILAR,INDUSTRIAL,36.84745,-2.03819,true,2025-09-30T07:00:00,2,O3
4066007,LA JOYA,INDUSTRIAL,36.95,-1.96148,true,2025-09-30T07:00:00,0,
4066008,FERNÁN PÉREZ,INDUSTRIAL,36.8951,-2.0467,false,2025-09-30T07:00:00,,
4066009,LA GRANATILLA,INDUSTRIAL,36.9581,-2.1592,true,2025-09-30T07:00:00,2,O3
4902001,EL EJIDO,FONDO,36.76972,-2.81097,true,2025-09-30T07:00:00,10,O3
5019002,ÁVILA 2,FONDO,40.66472,-4.70083,true,2025-09-30T07:00:00,10,O3
6015001,BADAJOZ,FONDO,38.88759,-7.01139,false,2025-09-30T07:00:00,10,NO2
6016999,BARCARROTA,FONDO,38.47278,-6.92333,true,2025-09-30T07:00:00,1,O3
6022001,BURGUILLOS DEL CERRO,FONDO,38.37031,-6.58865,true,2025-09-30T07:00:00,10,O3
6070001,JEREZ DE LOS CABALLEROS,FONDO,38.32656,-6.75742,true,2025-09-30T07:00:00,20,O3
6081001,MEDINA DE LAS TORRES,FONDO,38.33897,-6.41548,true,2025-09-30T07:00:00,10,O3
6083001,MERIDA,FONDO,38.90622,-6.33923,false,2025-09-30T07:00:00,0,
6158001,ZAFRA,FONDO,38.42795,-6.39735,true,2025-09-30T07:00:00,20,O3
7003001,S'ALBUFERA,FONDO,39.79117,3.07525,true,2025-09-30T07:00:00,20,O3
7003004,ALCUDIA I,FONDO,39.83482,3.14543,true,2025-09-30T07:00:00,20,O3
7010001,HOSPITAL JOAN MARCH,FONDO,39.67883,2.68778,false,2025-09-30T07:00:00,10,PM10
7015001,CIUTADELLA DE MENORCA,FONDO,40.01061,3.85758,true,2025-09-30T07:00:00,10,O3
7019001,MENUT,FONDO,39.83025,2.90072,true,2025-09-30T07:00:00,2,O3
7026001,CAN MISSES,INDUSTRIAL,38.91503,1.41542,true,2025-09-30T07:00:00,20,O3
7026002,DALT VILA,INDUSTRIAL,38.90719,1.43489,false,2025-09-30T07:00:00,,
7032002,POUS,INDUSTRIAL,39.89092,4.25297,true,2025-09-30T07:00:00,20,O3
7032003,PORT DE MAO,INDUSTRIAL,39.89259,4.25703,true,2025-09-30T07:00:00,20,O3
7032999,MAHÓN,FONDO,39.87611,4.32389,true,2025-09-30T07:00:00,3,O3
7040002,FONERS,TRAFICO,39.57125,2.65703,true,2025-09-30T07:00:00,20,O3
7040003,BELLVER,FONDO,39.56453,2.62169,true,2025-09-30T07:00:00,20,O3
7040004,UIB-PARC BIT,FONDO,39.63556,2.64806,true,2025-09-30T07:00:00,20,O3
7040006,SANT JOAN DE DÉU,INDUSTRIAL,39.54769,2.70111,true,2025-09-30T07:00:00,20,O3
7040007,SON LLATZER,INDUSTRIAL,39.5727,2.7031,true,2025-09-30T07:00:00,20,O3
7042001,CAN LLOMPART,FONDO,39.8408,3.0282,false,2025-09-30T07:00:00,,
7044001,SA POBLA,FONDO,39.74847,3.016,true,2025-09-30T07:00:00,20,O3
7046001,SANT ANTONI DE PORTMANY,FONDO,38.99439,1.31014,true,2025-09-30T07:00:00,2,O3
7054001,TORRENT-SANTA EULALIA,FONDO,38.9358,1.43291,true,2025-09-30T07:00:00,20,O3
8015021,BADALONA (MONT-ROIG - AUSIÀS MARCH),FONDO,41.44398,2.23788,true,2025-09-30T07:00:00,2,NO2
8019004,BARCELONA (EL POBLENOU),FONDO,41.40388,2.20452,true,2025-09-30T07:00:00,2,NO2
8019042,BARCELONA (SANTS),FONDO,41.3788,2.1331,true,2025-09-30T07:00:00,2,NO2
8019043,BARCELONA (L'EIXAMPLE),TRAFICO,41.3853,2.1538,true,2025-09-30T07:00:00,2,NO2
8019044,BARCELONA (GRÀCIA - SANT GERVASI),TRAFICO,41.39958,2.15239,true,2025-09-30T07:00:00,2,NO2
8019050,BARCELONA (CIUTADELLA),FONDO,41.3864,2.1874,true,2025-09-30T07:00:00,2,NO2
8019054,BARCELONA (PARC DE LA VALL D'HEBRON),FONDO,41.42608,2.14799,true,2025-09-30T07:00:00,2,NO2
8019057,BARCELONA (PALAU REIAL),FONDO,41.3875,2.1151,true,2025-09-30T07:00:00,2,NO2
8019058,BARCELONA (OBSERVATORI FABRA),FONDO,41.4189,2.1237,true,2025-09-30T07:00:00,2,O3
8022006,BERGA (POLIESPORTIU),FONDO,42.09791,1.84824,true,2025-09-30T07:00:00,1,O3
8074005,CUBELLES (POLIESPORTIU),INDUSTRIAL,41.2022,1.6722,false,2025-09-30T07:00:00,,
8074006,CUBELLES (POLIESPORTIU),FONDO,41.2022,1.6722,true,2025-09-30T07:00:00,1,O3
8089005,GAVÀ (PARC DEL MIL·LENI),FONDO,41.30311,1.99152,true,2025-09-30T07:00:00,10,O3
8096014,GRANOLLERS (FRANCESC MACIÀ),TRAFICO,41.59867,2.28712,true,2025-09-30T07:00:00,2,NO2
8101001,L'HOSPITALET DE LLOBREGAT (AV. DEL TORRENT GORNAL),FONDO,41.3705,2.11497,true,2025-09-30T07:00:00,2,NO2
8102005,IGUALADA (LA MASUCA),INDUSTRIAL,41.5776,1.6259,false,2025-09-30T07:00:00,,
8102007,IGUALADA (VIRTUT-DELICIES),FONDO,41.5776,1.6259,true,2025-09-30T07:00:00,1,PM10
8112003,MANLLEU (HOSPITAL COMARCAL),FONDO,42.00328,2.28727,true,2025-09-30T07:00:00,2,PM2.5
8113007,MANRESA (PL. D'ESPANYA),TRAFICO,41.73028,1.82531,true,2025-09-30T07:00:00,1,NO2
8114006,MARTORELL (POLIESPORTIU MUNICIPAL),FONDO,41.4756,1.9232,true,2025-09-30T07:00:00,2,PM10
8121013,MATARÓ (PASSEIG DELS MOLINS),FONDO,41.54716,2.44325,true,2025-09-30T07:00:00,1,O3
8124009,MOLLET DEL VALLÈS (AP7 KM. 139),TRAFICO,41.5492,2.2121,true,2025-09-30T07:00:00,2,PM2.5
8125002,MONTCADA I REIXAC (PL. DE LLUÍS COMPANYS),TRAFICO,41.4821,2.1885,true,2025-09-30T07:00:00,2,PM10
8125013,MONTCADA I REIXAC (CAN SANT JOAN),INDUSTRIAL,41.4698,2.18423,true,2025-09-30T07:00:00,2,PM10
8137001,MONTSENY (LA CASTANYA),FONDO,41.77934,2.35802,true,2025-09-30T07:00:00,20,O3
8157003,PALLEJÀ (ROCA DE VILANA),INDUSTRIAL,41.4153,1.9905,true,2025-09-30T07:00:00,10,NO2
8169008,EL PRAT DE LLOBREGAT (JARDINS DE LA PAU),FONDO,41.3215,2.09773,true,2025-09-30T07:00:00,2,NO2
8169009,EL PRAT DE LLOBREGAT (CEM SAGNIER),FONDO,41.32177,2.08214,true,2025-09-30T07:00:00,20,NO2
8184006,RUBÍ (CA N'ORIOL),FONDO,41.49208,2.0425,true,2025-09-30T07:00:00,2,PM10
8187012,SABADELL (GRAN VIA),TRAFICO,41.56118,2.10141,true,2025-09-30T07:00:00,2,NO2
8194008,SANT ADRIÀ DE BESÒS (OLÍMPIC),TRAFICO,41.4256,2.2222,true,2025-09-30T07:00:00,2,PM10
8196001,SANT ANDREU DE LA BARCA (CEIP JOSEP PLA),TRAFICO,41.4508,1.9749,true,2025-09-30T07:00:00,1,NO2
8202001,SANT CELONI (CARLES DAMM),FONDO,41.68905,2.49575,true,2025-09-30T07:00:00,1,NO2
8205002,SANT CUGAT DEL VALLÈS (PARC DE SANT FRANCESC),FONDO,41.47677,2.08898,true,2025-09-30T07:00:00,1,NO2
8245012,SANTA COLOMA DE GRAMENET (BALLDOVINA),FONDO,41.44735,2.20951,true,2025-09-30T07:00:00,2,NO2
8251003,SANTA MARGARIDA I ELS MONJOS (LA RÀPITA),INDUSTRIAL,41.3084,1.64734,true,2025-09-30T07:00:00,2,NO2
8252006,BARBERÀ DEL VALLÈS (MORAGUES - MONTSERRAT),FONDO,41.51268,2.12538,true,2025-09-30T07:00:00,1,NO2
8259002,SANTA MARIA DE PALAUTORDERA (MARTÍ BOADA),FONDO,41.69127,2.44094,true,2025-09-30T07:00:00,1,O3
8260010,SANTA PERPÈTUA DE MOGODA (ONZE DE SETEMBRE),TRAFICO,41.52671,2.1838,true,2025-09-30T07:00:00,2,PM10
8263001,SANT VICENÇ DELS HORTS (RIBOT - SANT MIQUEL),FONDO,41.39216,2.0098,true,2025-09-30T07:00:00,2,NO2
8263007,SANT VICENÇ DELS HORTS (ÀLABA),INDUSTRIAL,41.40077,1.99963,true,2025-09-30T07:00:00,2,NO2
8279011,TERRASSA (PARE ALEGRE),TRAFICO,41.55612,2.0074,true,2025-09-30T07:00:00,20,NO2
8283004,TONA (ZONA ESPORTIVA),FONDO,41.84603,2.21758,true,2025-09-30T07:00:00,1,NO2
8298008,VIC (ESTADI),FONDO,41.93567,2.23857,true,2025-09-30T07:00:00,1,PM10
8301004,VILADECANS (ATRIUM),FONDO,41.31348,2.01382,true,2025-09-30T07:00:00,10,O3
8305006,VILAFRANCA DEL PENEDÈS (ZONA ESPORTIVA),FONDO,41.34682,1.68658,true,2025-09-30T07:00:00,1,PM10
8307012,VILANOVA I LA GELTRÚ (PL. DE LES DANSES DE VILANOVA),TRAFICO,41.21904,1.72125,true,2025-09-30T07:00:00,20,PM10
9018002,ARANDA DE DUERO 2,TRAFICO,41.66556,-3.68889,true,2025-09-30T07:00:00,1,O3
9059003,BURGOS 1,TRAFICO,42.35083,-3.67556,false,2025-09-30T07:00:00,,
9059006,BURGOS 4,FONDO,42.33611,-3.63611,true,2025-09-30T07:00:00,2,O3
9059008,BURGOS 6,TRAFICO,42.3477,-3.6878,true,2025-09-30T07:00:00,10,PM10
9209001,MEDINA DE POMAR,FONDO,42.9519,-3.4753,true,2025-09-30T07:00:00,10,O3
9219002,MIRANDA DE EBRO 2,INDUSTRIAL,42.68806,-2.94056,true,2025-09-30T07:00:00,1,O3
10037001,CÁCERES,FONDO,39.4838,-6.34243,false,2025-09-30T07:00:00,0,
10148001,PLASENCIA,FONDO,40.04374,-6.08481,true,2025-09-30T07:00:00,20,NO2
10182001,MONFRAGÜE,FONDO,39.84375,-5.94301,true,2025-09-30T07:00:00,0,
11004006,E4:RINCONCILLO,INDUSTRIAL,36.1617,-5.4426,true,2025-09-30T07:00:00,1,NO2
11004007,ALGECIRAS EPS,INDUSTRIAL,36.13623,-5.45343,true,2025-09-30T07:00:00,2,NO2
11006001,ARCOS,INDUSTRIAL,36.73975,-5.74372,true,2025-09-30T07:00:00,1,O3
11008001,LOS BARRIOS,INDUSTRIAL,36.17538,-5.48083,true,2025-09-30T07:00:00,10,O3
11008003,COLEGIO (S1),INDUSTRIAL,36.18562,-5.48893,true,2025-09-30T07:00:00,1,NO2
11008006,PALMONES (S5),INDUSTRIAL,36.1747,-5.43277,true,2025-09-30T07:00:00,1,NO2
11008008,CORTIJILLOS,INDUSTRIAL,36.19048,-5.43576,true,2025-09-30T07:00:00,2,PM2.5
11008009,E2: ALCORNOCALES,FONDO,36.23386,-5.6635,true,2025-09-30T07:00:00,1,PM2.5
11012002,AVDA. MARCONI,TRAFICO,36.50602,-6.26857,true,2025-09-30T07:00:00,1,PM10
11020003,CARTUJA,INDUSTRIAL,36.66086,-6.11449,true,2025-09-30T07:00:00,2,PM10
11020004,JEREZ-CHAPMN,FONDO,36.68855,-6.11724,true,2025-09-30T07:00:00,2,PM10
11022005,LA LÍNEA,INDUSTRIAL,36.15937,-5.34836,true,2025-09-30T07:00:00,2,NO2
11022007,E7:EL ZABAL,FONDO,36.17315,-5.34194,true,2025-09-30T07:00:00,1,NO2
11026001,PRADO REY,INDUSTRIAL,36.79449,-5.53162,true,2025-09-30T07:00:00,20,PM10
11028001,RIO SAN PEDRO,FONDO,36.52283,-6.22517,true,2025-09-30T07:00:00,1,PM10
11031001,SAN FERNANDO,FONDO,36.46059,-6.20307,true,2025-09-30T07:00:00,10,PM10
11033003,SAN ROQUE (S6),INDUSTRIAL,36.21204,-5.43027,true,2025-09-30T07:00:00,10,PM2.5
11033004,CARTEYA (S9),INDUSTRIAL,36.20879,-5.39138,false,2025-09-30T07:00:00,1,NO2
11033005,CAMPAMENTO,INDUSTRIAL,36.17943,-5.37697,true,2025-09-30T07:00:00,2,NO2
11033006,ECONOMATO,INDUSTRIAL,36.1862,-5.3808,true,2025-09-30T07:00:00,2,PM2.5
11033007,GUADARRANQUE,INDUSTRIAL,36.1821,-5.41141,true,2025-09-30T07:00:00,1,O3
11033008,MADREVIEJA,INDUSTRIAL,36.20442,-5.40471,true,2025-09-30T07:00:00,1,PM2.5
11033009,HOSTELERÍA,TRAFICO,36.20388,-5.38371,true,2025-09-30T07:00:00,20,NO2
11033010,PUENTE MAYORGA,INDUSTRIAL,36.1801,-5.3825,true,2025-09-30T07:00:00,10,PM2.5
12005004,L'ALCORA-PM,INDUSTRIAL,40.06861,-0.20639,false,2025-09-30T07:00:00,0,
12005005,ALCORA,INDUSTRIAL,40.05194,-0.18972,true,2025-09-30T07:00:00,10,PM10
12009007,ALMASSORA-C. P. OCHANDO,INDUSTRIAL,39.94528,-0.05639,true,2025-09-30T07:00:00,0,
12028001,BENICASSIM,INDUSTRIAL,40.06222,0.07278,true,2025-09-30T07:00:00,0,
12032001,BURRIANA,INDUSTRIAL,39.89222,-0.065,true,2025-09-30T07:00:00,0,
12032005,BURRIANA RESIDENCIA,INDUSTRIAL,39.895,-0.08778,false,2025-09-30T07:00:00,0,
12040008,CASTELLÓ-PENYETA,INDUSTRIAL,40.01278,-0.05722,true,2025-09-30T07:00:00,2,O3
12040009,CASTELLÓ-ERMITA,INDUSTRIAL,39.95917,-0.03611,true,2025-09-30T07:00:00,10,NO2
12040010,CASTELLÓ-GRAU,INDUSTRIAL,39.98194,0.01056,true,2025-09-30T07:00:00,10,O3
12040015,CASTELLÓ-PATRONAT D'ESPORTS,TRAFICO,39.98889,-0.02611,true,2025-09-30T07:00:00,20,O3
12040016,CASTELLÓ - ITC,FONDO,39.99583,-0.065,false,2025-09-30T07:00:00,0,
12040020,CASTELLO CEIP LA MARINA,INDUSTRIAL,39.9694,0.0089,true,2025-09-30T07:00:00,20,O3
12046001,CIRAT,FONDO,40.05417,-0.46833,true,2025-09-30T07:00:00,10,O3
12080007,MORELLA,INDUSTRIAL,40.63722,-0.09111,true,2025-09-30T07:00:00,20,O3
12084003,ONDA,INDUSTRIAL,39.96278,-0.23333,true,2025-09-30T07:00:00,20,O3
12093004,CORATXAR,INDUSTRIAL,40.69167,0.08472,true,2025-09-30T07:00:00,20,O3
12099001,SANT JORDI,FONDO,40.55472,0.37278,true,2025-09-30T07:00:00,20,O3
12120001,TORRE ENDOMENECH,FONDO,40.26944,-0.07889,true,2025-09-30T07:00:00,20,O3
12124001,VALL D'ALBA PM,INDUSTRIAL,40.175,-0.03444,false,2025-09-30T07:00:00,0,
12126003,LA VALL D'UIXÓ,FONDO,39.82361,-0.24444,true,2025-09-30T07:00:00,20,O3
12129001,VILAFRANCA,FONDO,40.41667,-0.24917,true,2025-09-30T07:00:00,20,O3
12135004,VILA-REAL-PM,INDUSTRIAL,39.94167,-0.10583,false,2025-09-30T07:00:00,0,
12140002,VIVER,FONDO,39.93056,-0.60333,true,2025-09-30T07:00:00,10,O3
12141002,ZORITA,FONDO,40.735,-0.16944,true,2025-09-30T07:00:00,20,PM10
13034002,CIUDAD REAL,FONDO,38.9939,-3.9378,true,2025-09-30T07:00:00,10,PM10
13053001,MANZANARES,FONDO,38.9957,-3.3588,true,2025-09-30T07:00:00,1,O3
13071014,CALLE ANCHA,INDUSTRIAL,38.6893,-4.1115,false,2025-09-30T07:00:00,,
13071015,CAMPO DE FÚTBOL,INDUSTRIAL,38.682,-4.0886,true,2025-09-30T07:00:00,20,O3
13071016,INSTITUTO Nº 3,INDUSTRIAL,38.6807,-4.1083,false,2025-09-30T07:00:00,,
13071017,BARRIO 630,INDUSTRIAL,38.7027,-4.112,true,2025-09-30T07:00:00,10,PM10
13071018,RAMPAS MECÁNICAS,TRAFICO,38.69,-4.1134,true,2025-09-30T07:00:00,1,NO2
13071019,ALMACÉN MUNICIPAL,INDUSTRIAL,38.6791,-4.1078,true,2025-09-30T07:00:00,10,O3
14021006,ASOMADILLA,FONDO,37.90274,-4.77958,true,2025-09-30T07:00:00,10,PM10
14021007,LEPANTO,FONDO,37.89261,-4.76234,true,2025-09-30T07:00:00,1,PM10
14021009,AVDA. AL-NASIR,TRAFICO,37.8926,-4.7801,true,2025-09-30T07:00:00,1,NO2
14026002,POBLADO,INDUSTRIAL,38.10814,-4.9268,false,2025-09-30T07:00:00,,
14047001,OBEJO,INDUSTRIAL,38.1325,-4.8017,false,2025-09-30T07:00:00,,
14068001,VILLAHARTA,INDUSTRIAL,38.13793,-4.90397,false,2025-09-30T07:00:00,,
15005011,PASTORIZA-REPSOL,INDUSTRIAL,43.3353,-8.472,true,2025-09-30T07:00:00,1,NO2
15005012,CENTRO CIVICO,INDUSTRIAL,43.3023,-8.506,true,2025-09-30T07:00:00,2,O3
15005014,SABÓN-EMBALSE,INDUSTRIAL,43.3223,-8.4997,true,2025-09-30T07:00:00,2,PM10
15005015,PARQUE DA CEGA,INDUSTRIAL,43.34305,-8.44914,true,2025-09-30T07:00:00,2,NO2
15017002,S. VICENTE DE VIGO,INDUSTRIAL,43.2446,-8.3187,false,2025-09-30T07:00:00,,
15021001,MONTE XALO,INDUSTRIAL,43.2219,-8.4033,false,2025-09-30T07:00:00,,
15023004,CEE,INDUSTRIAL,42.9536,-9.1861,true,2025-09-30T07:00:00,1,PM2.5
15024001,CERCEDA,INDUSTRIAL,43.1866,-8.4716,true,2025-09-30T07:00:00,1,NO2
15024005,RODÍS,INDUSTRIAL,43.1478,-8.545,false,2025-09-30T07:00:00,,
15024006,Monte Xalo,INDUSTRIAL,43.20364,-8.41414,true,2025-09-30T07:00:00,1,PM2.5
15026001,PARAXÓN,INDUSTRIAL,43.17702,-8.19442,false,2025-09-30T07:00:00,,
15030001,CORLAB 1,TRAFICO,43.3671,-8.4206,true,2025-09-30T07:00:00,2,O3
15030021,LA GRELA,INDUSTRIAL,43.3542,-8.4249,true,2025-09-30T07:00:00,2,NO2
15030027,TORRE DE HÉRCULES,FONDO,43.3828,-8.4092,true,2025-09-30T07:00:00,2,O3
15030028,SAN PEDRO (AIR LIQUIDE),INDUSTRIAL,43.3774,-8.4369,true,2025-09-30T07:00:00,1,PM10
15032001,TEIXEIRO,INDUSTRIAL,43.1407,-8.0331,true,2025-09-30T07:00:00,1,PM10
15034008,DUMBRIA,INDUSTRIAL,43.0089,-9.1189,true,2025-09-30T07:00:00,1,PM10
15036003,FERROL,TRAFICO,43.4815,-8.24312,true,2025-09-30T07:00:00,2,O3
15036004,A CABANA,INDUSTRIAL,43.4916,-8.2522,true,2025-09-30T07:00:00,2,O3
15041001,PAIOSACO,INDUSTRIAL,43.2597,-8.555,true,2025-09-30T07:00:00,2,O3
15051001,PENEDO,INDUSTRIAL,43.45921,-8.24423,true,2025-09-30T07:00:00,1,NO2
15055003,XUBIA (MEGASA),INDUSTRIAL,43.5197,-8.1502,true,2025-09-30T07:00:00,1,PM10
15057999,NOIA,FONDO,42.72081,-8.92347,true,2025-09-30T07:00:00,2,O3
15059002,PRESA DE VILLAGUDÍN,INDUSTRIAL,43.0935,-8.4964,true,2025-09-30T07:00:00,1,PM10
15059004,BUSCÁS,INDUSTRIAL,43.116,-8.3513,true,2025-09-30T07:00:00,1,O3
15070002,MAGDALENA (B-1),INDUSTRIAL,43.4539,-7.8478,true,2025-09-30T07:00:00,2,O3
15070006,FRAGA REDONDA (F-2),INDUSTRIAL,43.4054,-7.9886,true,2025-09-30T07:00:00,2,O3
15070010,MACIÑEIRA,INDUSTRIAL,43.4454,-7.9181,true,2025-09-30T07:00:00,1,PM10
15070011,MARRAXÓN,INDUSTRIAL,43.4708,-7.8398,false,2025-09-30T07:00:00,,
15078005,CAMPO DE FÚTBOL,INDUSTRIAL,42.9092,-8.5068,true,2025-09-30T07:00:00,1,PM10
15078007,COMPOSTELA,FONDO,42.876,-8.5591,true,2025-09-30T07:00:00,1,O3
15078008,SAN CAETANO,TRAFICO,42.8878,-8.5311,true,2025-09-30T07:00:00,1,O3
16078001,CUENCA,FONDO,40.0619,-2.1297,true,2025-09-30T07:00:00,10,PM10
17001002,AGULLANA (DIPÒSITS D'AIGUA),FONDO,42.39198,2.84214,true,2025-09-30T07:00:00,2,O3
17013001,BEGUR (CENTRE D'ESTUDIS DEL MAR),FONDO,41.95868,3.21285,true,2025-09-30T07:00:00,2,O3
17032999,CABO DE CREUS,FONDO,42.31917,3.31556,true,2025-09-30T07:00:00,2,O3
17079003,GIRONA (ESCOLA DE MÚSICA),TRAFICO,41.97639,2.81655,true,2025-09-30T07:00:00,1,PM2.5
17125001,PARDINES (AJUNTAMENT),FONDO,42.3121,2.213,true,2025-09-30T07:00:00,1,O3
17184001,SANTA PAU (CAN JORDÀ),FONDO,42.14326,2.51021,true,2025-09-30T07:00:00,1,O3
18021001,CIUDAD DEPORTIVA,FONDO,37.1356,-3.6193,true,2025-09-30T07:00:00,1,O3
18087007,GRANADA - NORTE,TRAFICO,37.1961,-3.61266,true,2025-09-30T07:00:00,2,NO2
18087010,PALACIO CONGRESOS,FONDO,37.16568,-3.6001,true,2025-09-30T07:00:00,1,PM10
18140001,MOTRIL,FONDO,36.74312,-3.5173,true,2025-09-30T07:00:00,10,PM10
18189999,VÍZNAR,FONDO,37.23694,-3.55056,true,2025-09-30T07:00:00,1,O3
19046001,AZUQUECA DE HENARES,FONDO,40.571,-3.2646,false,2025-09-30T07:00:00,,
19046002,AZUQUECA - IES,FONDO,40.5684,-3.2702,true,2025-09-30T07:00:00,20,O3
19061999,CAMPISÁBALOS,FONDO,41.27417,-3.1425,true,2025-09-30T07:00:00,2,O3
19130001,GUADALAJARA,FONDO,40.6298,-3.1716,true,2025-09-30T07:00:00,2,O3
20009001,ANDOAIN,TRAFICO,43.2213,-2.02328,true,2025-09-30T07:00:00,2,PM10
20016001,PAGOETA,FONDO,43.25056,-2.155,true,2025-09-30T07:00:00,2,O3
20018001,AZPEITIA,TRAFICO,43.1804,-2.2682,true,2025-09-30T07:00:00,1,PM10
20019001,BEASAIN,TRAFICO,43.04811,-2.19138,true,2025-09-30T07:00:00,1,PM2.5
20036001,JAIZKIBEL,FONDO,43.34289,-1.85943,true,2025-09-30T07:00:00,2,O3
20040001,HERNANI,TRAFICO,43.2675,-1.9777,true,2025-09-30T07:00:00,1,NO2
20055001,ARRASATE,TRAFICO,43.0642,-2.4904,true,2025-09-30T07:00:00,1,PM10
20069002,ATEGORRIETA,TRAFICO,43.322,-1.9607,true,2025-09-30T07:00:00,1,PM10
20069004,PUYO,FONDO,43.30278,-1.98444,true,2025-09-30T07:00:00,1,NO2
20069005,AVENIDA TOLOSA,TRAFICO,43.3094,-2.0109,true,2025-09-30T07:00:00,1,NO2
20069006,EASO,TRAFICO,43.31217,-1.98083,true,2025-09-30T07:00:00,2,NO2
20069007,ZUBIETA,FONDO,43.27209,-2.03131,true,2025-09-30T07:00:00,1,PM2.5
20071001,TOLOSA,TRAFICO,43.1308,-2.078,true,2025-09-30T07:00:00,1,PM2.5
20073001,USURBIL,INDUSTRIAL,43.27379,-2.05051,true,2025-09-30T07:00:00,2,PM2.5
20080001,ZUMARRAGA,FONDO,43.12518,-2.31811,true,2025-09-30T07:00:00,1,PM2.5
20902001,LASARTE-ORIA,FONDO,43.26874,-2.01913,true,2025-09-30T07:00:00,1,NO2
21005002,MATALASCAÑAS,FONDO,37.0161,-6.57042,true,2025-09-30T07:00:00,10,PM10
21005999,DOÑANA,FONDO,37.05194,-6.555,true,2025-09-30T07:00:00,1,NO2
21041008,LA ORDEN,INDUSTRIAL,37.27964,-6.93807,true,2025-09-30T07:00:00,10,NO2
21041010,LOS ROSALES,INDUSTRIAL,37.2602,-6.9255,true,2025-09-30T07:00:00,10,PM10
21041012,ROMERALEJO,INDUSTRIAL,37.26725,-6.91905,true,2025-09-30T07:00:00,0,
21041015,MARISMAS DEL TITÁN,INDUSTRIAL,37.25258,-6.94219,true,2025-09-30T07:00:00,1,NO2
21041016,POZO DULCE,TRAFICO,37.25336,-6.93514,true,2025-09-30T07:00:00,1,PM10
21041017,CAMPUS DEL CARMEN,INDUSTRIAL,37.27168,-6.92529,true,2025-09-30T07:00:00,1,PM2.5
21050001,MOGUER,INDUSTRIAL,37.28156,-6.83384,true,2025-09-30T07:00:00,2,PM10
21050002,EL ARENOSILLO,FONDO,37.1041,-6.7341,true,2025-09-30T07:00:00,1,O3
21050003,MAZAGON,INDUSTRIAL,37.13379,-6.80745,false,2025-09-30T07:00:00,10,O3
21053003,NIEBLA,INDUSTRIAL,37.3613,-6.6769,true,2025-09-30T07:00:00,2,PM10
21055004,LA RÁBIDA,INDUSTRIAL,37.19977,-6.92027,true,2025-09-30T07:00:00,10,PM10
21055005,PALOS,INDUSTRIAL,37.21925,-6.88858,true,2025-09-30T07:00:00,2,PM10
21055007,TORREARENILLA,INDUSTRIAL,37.19033,-6.90453,false,2025-09-30T07:00:00,10,PM10
21060002,PUNTA UMBRÍA,INDUSTRIAL,37.18568,-6.96414,true,2025-09-30T07:00:00,10,PM10
21064002,SAN JUÁN DEL PUERTO,INDUSTRIAL,37.3154,-6.84463,true,2025-09-30T07:00:00,1,NO2
22125001,HUESCA,TRAFICO,42.13611,-0.40389,true,2025-09-30T07:00:00,1,NO2
22158002,MONZÓN CENTRO,FONDO,41.91614,0.1911,true,2025-09-30T07:00:00,10,NO2
22190001,TORRELISA,FONDO,42.4578,0.1819,true,2025-09-30T07:00:00,2,O3
23010002,BAILÉN,INDUSTRIAL,38.09293,-3.78392,true,2025-09-30T07:00:00,1,PM2.5
23050003,RONDA DEL VALLE,FONDO,37.78255,-3.78157,true,2025-09-30T07:00:00,10,NO2
23050004,LAS FUENTEZUELAS,FONDO,37.78444,-3.81032,true,2025-09-30T07:00:00,1,NO2
23097001,VILLANUEVA DEL ARZOBISPO,INDUSTRIAL,38.1744,-3.01022,true,2025-09-30T07:00:00,1,NO2
24025001,LARIO,FONDO,43.0414,-5.0897,true,2025-09-30T07:00:00,0,
24038001,CARRACEDELO,INDUSTRIAL,42.5586,-6.7256,false,2025-09-30T07:00:00,0,
24064001,CUBILLOS DEL SIL-FESE,INDUSTRIAL,42.61797,-6.56827,true,2025-09-30T07:00:00,2,O3
24089006,BARRIO PINILLA,TRAFICO,42.6039,-5.5872,true,2025-09-30T07:00:00,1,NO2
24089010,LEÓN 4,FONDO,42.5753,-5.5664,true,2025-09-30T07:00:00,10,PM10
24115015,PONFERRADA 4,INDUSTRIAL,42.54278,-6.58472,false,2025-09-30T07:00:00,,
24115017,PONFERRADA 6,TRAFICO,42.5507,-6.6036,true,2025-09-30T07:00:00,1,NO2
24134006,LA ROBLA,INDUSTRIAL,42.8028,-5.6236,true,2025-09-30T07:00:00,10,O3
24181001,VALDERAS,FONDO,42.0797,-5.4489,true,2025-09-30T07:00:00,20,O3
25051001,BELLVER DE CERDANYA (CEIP MARE DE DÉU DE TALLÓ),FONDO,42.3683,1.7768,false,2025-09-30T07:00:00,,
25051002,BELLVER DE CERDANYA (EL TALLÓ),FONDO,42.3629,1.7797,true,2025-09-30T07:00:00,1,O3
25119002,JUNEDA (PLA DEL MOLÍ),FONDO,41.5441,0.82993,true,2025-09-30T07:00:00,1,PM10
25120001,LLEIDA (IRURITA - PIUS XII),TRAFICO,41.6158,0.6157,true,2025-09-30T07:00:00,2,PM2.5
25172001,PONTS (PONENT),FONDO,41.90665,1.19297,true,2025-09-30T07:00:00,1,O3
25196001,MONTSEC (OAM),FONDO,42.05134,0.72956,true,2025-09-30T07:00:00,3,O3
25209001,SORT (ESCOLA DE CAIAC),FONDO,42.40538,1.13,true,2025-09-30T07:00:00,1,PM2.5
25224999,ELS TORMS,FONDO,41.39333,0.73417,true,2025-09-30T07:00:00,10,NO2
26011001,ALFARO,INDUSTRIAL,42.176,-1.744,true,2025-09-30T07:00:00,1,PM10
26019001,ARRÚBAL,INDUSTRIAL,42.44,-2.239,true,2025-09-30T07:00:00,10,O3
26066001,GALILEA,INDUSTRIAL,42.341,-2.232,true,2025-09-30T07:00:00,20,O3
26089001,LA CIGÜEÑA,FONDO,42.464,-2.428,true,2025-09-30T07:00:00,2,PM2.5
26117001,PRADEJÓN,INDUSTRIAL,42.34,-2.059,true,2025-09-30T07:00:00,20,O3
27013002,RIO COBO,INDUSTRIAL,43.6844,-7.4319,true,2025-09-30T07:00:00,1,PM10
27025015,XOVE,INDUSTRIAL,43.68627,-7.50778,true,2025-09-30T07:00:00,2,O3
27028005,LUGO-FINGOY,TRAFICO,42.9979,-7.5509,true,2025-09-30T07:00:00,1,PM10
27028006,Cuíña,INDUSTRIAL,42.9573,-7.5047,true,2025-09-30T07:00:00,2,PM2.5
27033001,LOUSEIRAS (B-2),INDUSTRIAL,43.5329,-7.7377,false,2025-09-30T07:00:00,,
27038004,SUR,INDUSTRIAL,42.71528,-7.44944,false,2025-09-30T07:00:00,,
27057001,EST-OU,INDUSTRIAL,42.7172,-7.4456,true,2025-09-30T07:00:00,1,PM10
27057002,SUR,INDUSTRIAL,42.71528,-7.44944,true,2025-09-30T07:00:00,1,PM10
27058999,O SAVIÑAO,FONDO,42.63472,-7.70458,true,2025-09-30T07:00:00,2,O3
27065004,MOURENCE (C-9),INDUSTRIAL,43.313,-7.6937,true,2025-09-30T07:00:00,2,O3
27902001,BURELA,FONDO,43.6694,-7.3789,false,2025-09-30T07:00:00,,
27902002,ESCOLA DE MÚSICA,FONDO,43.6591,-7.3632,true,2025-09-30T07:00:00,1,PM10
28005002,ALCALÁ DE HENARES,TRAFICO,40.47933,-3.37795,true,2025-09-30T07:00:00,20,O3
28006004,ALCOBENDAS,TRAFICO,40.54035,-3.64525,true,2025-09-30T07:00:00,2,O3
28007004,ALCORCÓN,FONDO,40.3419,-3.8337,true,2025-09-30T07:00:00,2,O3
28009001,ALGETE,FONDO,40.5997,-3.5033,true,2025-09-30T07:00:00,2,O3
28013002,ARANJUEZ,FONDO,40.03327,-3.5914,true,2025-09-30T07:00:00,2,O3
28014002,ARGANDA DEL REY,INDUSTRIAL,40.30069,-3.45883,true,2025-09-30T07:00:00,10,NO2
28016001,EL ATAZAR,FONDO,40.909,-3.4679,true,2025-09-30T07:00:00,2,O3
28045002,COLMENAR VIEJO,TRAFICO,40.6646,-3.7739,true,2025-09-30T07:00:00,2,O3
28047002,COLLADO VILLALBA,TRAFICO,40.6339,-4.01425,true,2025-09-30T07:00:00,2,O3
28049003,COSLADA,TRAFICO,40.4306,-3.5424,true,2025-09-30T07:00:00,2,NO2
28058004,FUENLABRADA,INDUSTRIAL,40.28151,-3.80095,true,2025-09-30T07:00:00,2,O3
28065014,GETAFE,TRAFICO,40.31452,-3.71687,true,2025-09-30T07:00:00,2,O3
28067001,GUADALIX DE LA SIERRA,FONDO,40.78063,-3.70215,true,2025-09-30T07:00:00,2,O3
28074007,LEGANÉS,TRAFICO,40.3397,-3.7545,true,2025-09-30T07:00:00,2,O3
28079004,PLAZA DE ESPAÑA,TRAFICO,40.42417,-3.71222,true,2025-09-30T07:00:00,1,NO2
28079008,ESCUELAS AGUIRRE,TRAFICO,40.42167,-3.68222,true,2025-09-30T07:00:00,2,O3
28079011,RAMÓN Y CAJAL,TRAFICO,40.45167,-3.67722,true,2025-09-30T07:00:00,1,NO2
28079016,ARTURO SORIA,FONDO,40.44,-3.63917,true,2025-09-30T07:00:00,2,O3
28079017,VILLAVERDE,FONDO,40.34694,-3.705,true,2025-09-30T07:00:00,2,O3
28079018,FAROLILLO,FONDO,40.39472,-3.73194,true,2025-09-30T07:00:00,2,O3
28079024,CASA DE CAMPO,FONDO,40.42,-3.74917,true,2025-09-30T07:00:00,2,O3
28079027,BARAJAS - PUEBLO,FONDO,40.47472,-3.575,true,2025-09-30T07:00:00,2,O3
28079035,PLAZA DEL CARMEN,FONDO,40.41917,-3.70333,true,2025-09-30T07:00:00,2,O3
28079036,MORATALAZ,TRAFICO,40.40806,-3.64528,true,2025-09-30T07:00:00,1,NO2
28079038,CUATRO CAMINOS-PABLO IGLESIAS,TRAFICO,40.44528,-3.70639,true,2025-09-30T07:00:00,1,NO2
28079039,BARRIO DEL PILAR,TRAFICO,40.47833,-3.71139,true,2025-09-30T07:00:00,2,O3
28079040,PUENTE DE VALLECAS,FONDO,40.38806,-3.65139,true,2025-09-30T07:00:00,1,PM10
28079047,MENDEZ ALVARO,FONDO,40.39806,-3.68667,true,2025-09-30T07:00:00,1,NO2
28079048,CASTELLANA,TRAFICO,40.43972,-3.69028,true,2025-09-30T07:00:00,1,PM10
28079049,RETIRO,FONDO,40.40972,-3.68556,true,2025-09-30T07:00:00,2,O3
28079050,PLAZA CASTILLA-CANAL,TRAFICO,40.46583,-3.68833,true,2025-09-30T07:00:00,1,NO2
28079054,ENSANCHE DE VALLECAS,FONDO,40.37278,-3.61194,true,2025-09-30T07:00:00,2,O3
28079055,URBANIZACION EMBAJADA,FONDO,40.4625,-3.58056,false,2025-09-30T07:00:00,0,
28079056,PLAZA ELÍPTICA,TRAFICO,40.3847,-3.7186,true,2025-09-30T07:00:00,2,NO2
28079057,SANCHINARRO,FONDO,40.49417,-3.66028,true,2025-09-30T07:00:00,2,PM2.5
28079058,EL PARDO,FONDO,40.51806,-3.77444,true,2025-09-30T07:00:00,2,O3
28079059,JUAN CARLOS I,FONDO,40.465,-3.60889,true,2025-09-30T07:00:00,2,O3
28079060,TRES OLIVOS,FONDO,40.50056,-3.68972,true,2025-09-30T07:00:00,2,O3
28080003,MAJADAHONDA,FONDO,40.4461,-3.8689,true,2025-09-30T07:00:00,2,O3
28092005,MÓSTOLES,FONDO,40.3242,-3.87677,true,2025-09-30T07:00:00,2,O3
28102001,ORUSCO DE TAJUÑA,FONDO,40.2876,-3.2211,true,2025-09-30T07:00:00,2,O3
28106001,PARLA,TRAFICO,40.23356,-3.7694,true,2025-09-30T07:00:00,2,O3
28115003,POZUELO DE ALARCÓN,TRAFICO,40.4491,-3.8037,true,2025-09-30T07:00:00,2,O3
28120001,PUERTO DE COTOS,FONDO,40.8251,-3.9612,true,2025-09-30T07:00:00,2,O3
28123002,RIVAS-VACIAMADRID,FONDO,40.3597,-3.5429,true,2025-09-30T07:00:00,2,O3
28127004,LAS ROZAS,TRAFICO,40.5014,-3.8862,true,2025-09-30T07:00:00,2,O3
28133002,SAN MARTIN DE VALDEIGLESIAS,FONDO,40.3677,-4.3981,true,2025-09-30T07:00:00,2,O3
28134002,SAN SEBASTIAN DE LOS REYES,FONDO,40.56067,-3.62562,true,2025-09-30T07:00:00,2,O3
28148004,TORREJON DE ARDOZ,FONDO,40.4495,-3.4776,true,2025-09-30T07:00:00,2,O3
28161001,VALDEMORO,FONDO,40.18524,-3.68027,true,2025-09-30T07:00:00,2,O3
28171001,VILLA DEL PRADO,FONDO,40.2479,-4.2752,true,2025-09-30T07:00:00,2,O3
28180001,VILLAREJO DE SALVANES,TRAFICO,40.1672,-3.2766,true,2025-09-30T07:00:00,2,O3
29032001,CAMPILLOS,FONDO,36.9623,-4.84483,true,2025-09-30T07:00:00,10,PM2.5
29067005,EL ATABAL,FONDO,36.72956,-4.46553,true,2025-09-30T07:00:00,2,NO2
29067006,CARRANQUE,FONDO,36.71964,-4.4475,true,2025-09-30T07:00:00,20,NO2
29067007,CAMPANILLAS CIFA,INDUSTRIAL,36.72785,-4.56095,true,2025-09-30T07:00:00,1,NO2
29067008,AVENIDA JUAN XXIII,TRAFICO,36.7073,-4.446,true,2025-09-30T07:00:00,2,NO2
29067009,MÁLAGA-ESTE,FONDO,36.7261,-4.35573,true,2025-09-30T07:00:00,1,O3
29069002,MARBELLA ARCO,TRAFICO,36.511,-4.863,true,2025-09-30T07:00:00,2,NO2
30005002,ALCANTARILLA,INDUSTRIAL,37.9745,-1.2321,true,2025-09-30T07:00:00,1,O3
30015001,CARAVACA,FONDO,38.1147,-1.8687,true,2025-09-30T07:00:00,2,O3
30016001,ALUMBRES,INDUSTRIAL,37.60203,-0.91436,true,2025-09-30T07:00:00,2,O3
30016018,LA ALJORRA,INDUSTRIAL,37.6925,-1.0659,true,2025-09-30T07:00:00,2,O3
30016020,MOMPEAN,FONDO,37.6018,-0.9762,true,2025-09-30T07:00:00,2,O3
30016021,VALLE DE ESCOMBRERAS,INDUSTRIAL,37.5744,-0.92654,true,2025-09-30T07:00:00,2,O3
30022002,JUMILLA,FONDO,38.4717,-1.3285,true,2025-09-30T07:00:00,2,O3
30024002,LORCA,INDUSTRIAL,37.68784,-1.70278,true,2025-09-30T07:00:00,1,PM10
30027002,MOLINA DE SEGURA,TRAFICO,38.05737,-1.20481,true,2025-09-30T07:00:00,2,O3
30030007,SAN BASILIO,TRAFICO,37.9923,-1.1459,true,2025-09-30T07:00:00,2,NO2
30030015,RONDA SUR,TRAFICO,37.9701,-1.1277,true,2025-09-30T07:00:00,2,NO2
31010001,ALTSASU,FONDO,42.898,-2.173,true,2025-09-30T07:00:00,1,NO2
31107001,FUNES,INDUSTRIAL,42.307,-1.81,true,2025-09-30T07:00:00,2,O3
31149002,LEITZA,FONDO,43.082,-1.913,true,2025-09-30T07:00:00,1,PM10
31191001,OLITE,FONDO,42.49,-1.656,true,2025-09-30T07:00:00,1,PM10
31201012,PAMPLONA - ITURRAMA,FONDO,42.806,-1.653,true,2025-09-30T07:00:00,2,O3
31201013,PLAZA DE LA CRUZ,TRAFICO,42.81222,-1.64,false,2025-09-30T07:00:00,,
31201014,PAMPLONA - ROCHAPEA,FONDO,42.826,-1.651,true,2025-09-30T07:00:00,2,PM10
31201015,PAMPLONA - MILAGROSA,TRAFICO,42.807,-1.644,true,2025-09-30T07:00:00,20,NO2
31201016,PAMPLONA - UPNA,FONDO,42.792,-1.63,true,2025-09-30T07:00:00,10,O3
31216001,SANGÜESA,INDUSTRIAL,42.579,-1.284,true,2025-09-30T07:00:00,1,O3
31232002,TUDELA - CANRASO,INDUSTRIAL,42.074,-1.628,true,2025-09-30T07:00:00,2,O3
31232003,TUDELA - CENTRO,FONDO,42.06,-1.601,true,2025-09-30T07:00:00,1,PM10
32032001,XINZO DE LIMIA,TRAFICO,42.0607,-7.7299,true,2025-09-30T07:00:00,1,PM10
32039001,LAZA,FONDO,42.0616,-7.4089,true,2025-09-30T07:00:00,2,O3
32054004,GOMEZ FRANQUEIRA,TRAFICO,42.353,-7.8779,true,2025-09-30T07:00:00,2,PM10
33004020,LLARANES,INDUSTRIAL,43.5503,-5.8989,true,2025-09-30T07:00:00,1,PM10
33004021,LLANOPONTE,TRAFICO,43.5512,-5.9197,true,2025-09-30T07:00:00,1,PM2.5
33004048,MATADERO,INDUSTRIAL,43.5792,-5.9273,false,2025-09-30T07:00:00,,
33004049,PLAZA DE LA GUITARRA,TRAFICO,43.5589,-5.9275,true,2025-09-30T07:00:00,1,PM10
33004052,SALINAS,FONDO,43.5705,-5.9583,true,2025-09-30T07:00:00,1,PM10
33004100,JARDÍN DE CANTOS,FONDO,43.568,-5.9244,true,2025-09-30T07:00:00,1,PM10
33011001,CANGAS DEL NARCEA,FONDO,43.1788,-6.5527,true,2025-09-30T07:00:00,1,O3
33024023,HERMANOS FELGUEROSO,TRAFICO,43.5352,-5.6583,false,2025-09-30T07:00:00,,
33024024,ARGENTINA,TRAFICO,43.5388,-5.6989,true,2025-09-30T07:00:00,1,PM2.5
33024025,CONSTITUCIÓN,TRAFICO,43.5299,-5.6735,true,2025-09-30T07:00:00,1,NO2
33024027,AVENIDA DE CASTILLA,TRAFICO,43.5378,-5.6461,true,2025-09-30T07:00:00,1,NO2
33024031,MONTEVIL,FONDO,43.5166,-5.6707,true,2025-09-30T07:00:00,1,NO2
33024032,SANTA BÁRBARA,FONDO,43.5229,-5.6895,true,2025-09-30T07:00:00,1,PM10
33024099,EL LAUREDAL,INDUSTRIAL,43.5427,-5.7093,true,2025-09-30T07:00:00,2,PM10
33031029,MERIÑÁN,INDUSTRIAL,43.3069,-5.7057,true,2025-09-30T07:00:00,1,PM10
33031030,LA FELGUERA,INDUSTRIAL,43.3067,-5.6897,true,2025-09-30T07:00:00,1,PM2.5
33031032,SAMA I,FONDO,43.2941,-5.6796,true,2025-09-30T07:00:00,1,PM10
33036999,NIEMBRO,FONDO,43.43917,-4.84972,true,2025-09-30T07:00:00,20,O3
33037012,JARDINES DE JUAN XXIII,TRAFICO,43.2561,-5.7759,true,2025-09-30T07:00:00,10,PM10
33044029,PLAZA DE TOROS,TRAFICO,43.3583,-5.8664,true,2025-09-30T07:00:00,1,PM10
33044030,PALACIO DE DEPORTES,TRAFICO,43.3665,-5.833,true,2025-09-30T07:00:00,1,NO2
33044032,PURIFICACIÓN TOMÁS,FONDO,43.3727,-5.8728,true,2025-09-30T07:00:00,1,O3
33044033,TRUBIA PISCINAS,INDUSTRIAL,43.3457,-5.9697,true,2025-09-30T07:00:00,2,PM10
33060003,BLIMEA,FONDO,43.2757,-5.596,true,2025-09-30T07:00:00,1,PM10
33066004,LUGONES INSTITUTO,INDUSTRIAL,43.4015,-5.8028,true,2025-09-30T07:00:00,1,PM10
33068001,SOMIEDO,FONDO,43.0696,-6.1926,true,2025-09-30T07:00:00,1,O3
34023003,CEMENTOS PORTLAND 1,INDUSTRIAL,41.93278,-4.47,false,2025-09-30T07:00:00,0,
34023004,CEMENTOS PORTLAND 2,INDUSTRIAL,41.94806,-4.46583,false,2025-09-30T07:00:00,0,
34080004,GUARDO,INDUSTRIAL,42.79528,-4.84083,true,2025-09-30T07:00:00,1,O3
34120008,PALENCIA 3,TRAFICO,42.0194,-4.5383,true,2025-09-30T07:00:00,20,O3
34214001,VILLALBA DE GUARDO,INDUSTRIAL,42.70361,-4.82722,false,2025-09-30T07:00:00,,
34225001,RENAULT 4,INDUSTRIAL,41.9614,-4.4944,false,2025-09-30T07:00:00,0,
35002001,AGÜIMES,INDUSTRIAL,27.89764,-15.44503,true,2025-09-30T07:00:00,2,O3
35002003,OBSERVATORIO TEMISAS,FONDO,27.8998,-15.50793,true,2025-09-30T07:00:00,20,PM10
35004001,ARRECIFE,INDUSTRIAL,28.97699,-13.54758,true,2025-09-30T07:00:00,2,O3
35004002,CIUDAD DEPORTIVA-ARRECIFE,FONDO,28.96787,-13.55586,true,2025-09-30T07:00:00,2,O3
35006001,POLIDEPORTIVO AFONSO-ARUCAS,FONDO,28.11127,-15.52092,true,2025-09-30T07:00:00,2,O3
35016010,JINÁMAR III FASE,INDUSTRIAL,28.03512,-15.41631,true,2025-09-30T07:00:00,2,O3
35016011,NÉSTOR ÁLAMO,INDUSTRIAL,28.03156,-15.40914,true,2025-09-30T07:00:00,2,O3
35016012,MERCADO CENTRAL,TRAFICO,28.13373,-15.43282,true,2025-09-30T07:00:00,20,O3
35016014,SAN NICOLÁS,FONDO,28.1033,-15.4228,true,2025-09-30T07:00:00,2,O3
35017001,CENTRO DE ARTE JUAN ISMAEL,INDUSTRIAL,28.50026,-13.8524,true,2025-09-30T07:00:00,2,O3
35017002,PARQUE DE LA PIEDRA,INDUSTRIAL,28.50276,-13.8537,true,2025-09-30T07:00:00,20,O3
35017003,CASA PALACIO-PUERTO DEL ROSARIO,FONDO,28.49838,-13.86083,true,2025-09-30T07:00:00,20,O3
35017004,TEFÍA-PUERTO DEL ROSARIO,FONDO,28.52722,-14.00444,true,2025-09-30T07:00:00,2,O3
35017005,EL CHARCO-PTO DEL ROSARIO,INDUSTRIAL,28.50616,-13.84898,true,2025-09-30T07:00:00,2,O3
35017006,EDIFICIO POLIVALENTE-PORTÁTIL 5,INDUSTRIAL,28.502,-13.848,false,2025-09-30T07:00:00,,
35019001,SAN AGUSTÍN,TRAFICO,27.7726,-15.54188,true,2025-09-30T07:00:00,2,O3
35019002,PLAYA DEL INGLÉS,TRAFICO,27.76365,-15.56385,false,2025-09-30T07:00:00,,
35019004,CASTILLO DEL ROMERAL,INDUSTRIAL,27.80128,-15.46116,true,2025-09-30T07:00:00,20,PM2.5
35022002,CAMPING TEMISAS-STA LUCÍA DE T.,FONDO,27.89833,-15.48833,false,2025-09-30T07:00:00,,
35022003,ITC,INDUSTRIAL,27.8155,-15.4276,true,2025-09-30T07:00:00,2,PM10
35024001,COSTA TEGUISE,INDUSTRIAL,28.99031,-13.51655,true,2025-09-30T07:00:00,2,O3
35024002,LAS CALETAS-TEGUISE,TRAFICO,28.98287,-13.51403,true,2025-09-30T07:00:00,20,O3
35026001,PEDRO LEZCANO,INDUSTRIAL,28.02985,-15.41609,true,2025-09-30T07:00:00,2,O3
35026003,PARQUE DE SAN JUAN-TELDE,FONDO,28.00365,-15.41185,true,2025-09-30T07:00:00,2,O3
35026004,LA LOMA-TELDE,INDUSTRIAL,28.02632,-15.41466,true,2025-09-30T07:00:00,2,O3
36024001,LALÍN,FONDO,42.6563,-8.1071,true,2025-09-30T07:00:00,1,O3
36038008,AREEIRO,INDUSTRIAL,42.4047,-8.6703,true,2025-09-30T07:00:00,1,PM10
36038010,CAMPOLONGO,TRAFICO,42.42593,-8.644,true,2025-09-30T07:00:00,1,NO2
36041001,CAMPELO,INDUSTRIAL,42.4275,-8.6769,true,2025-09-30T07:00:00,1,O3
36042001,PONTEAREAS,FONDO,42.1814,-8.5239,true,2025-09-30T07:00:00,1,NO2
36057019,ARENAL,TRAFICO,42.219,-8.7421,true,2025-09-30T07:00:00,2,NO2
36057021,ESTACION 1 (ESTE),INDUSTRIAL,42.21028,-8.73694,true,2025-09-30T07:00:00,1,PM2.5
36057022,ESTACION 2 (OESTE),INDUSTRIAL,42.2029,-8.747,true,2025-09-30T07:00:00,2,NO2
36057026,LOPE DE VEGA,TRAFICO,42.2224,-8.7111,true,2025-09-30T07:00:00,1,NO2
37177001,EL MAILLO,FONDO,40.56972,-6.22389,true,2025-09-30T07:00:00,20,O3
37274010,SALAMANCA 5,TRAFICO,40.9792,-5.6653,true,2025-09-30T07:00:00,1,PM10
37274011,SALAMANCA 6,FONDO,40.96083,-5.63972,true,2025-09-30T07:00:00,1,O3
38004001,LA HIDALGA-ARAFO,FONDO,28.33722,-16.39972,true,2025-09-30T07:00:00,2,O3
38005001,SAN MIGUEL DE TAJAO,INDUSTRIAL,28.11137,-16.47163,true,2025-09-30T07:00:00,1,PM10
38006001,GALLETAS,FONDO,28.00774,-16.65591,true,2025-09-30T07:00:00,2,O3
38006002,BUZANADA,FONDO,28.07255,-16.65302,false,2025-09-30T07:00:00,,
38006003,EL RÍO,INDUSTRIAL,28.14509,-16.52369,true,2025-09-30T07:00:00,20,O3
38008001,LA GRAMA-BREÑA ALTA,INDUSTRIAL,28.66771,-17.77555,true,2025-09-30T07:00:00,2,O3
38009001,SAN ANTONIO-BREÑA BAJA,FONDO,28.6454,-17.77155,true,2025-09-30T07:00:00,2,O3
38011004,CALETILLA,INDUSTRIAL,28.37671,-16.36193,true,2025-09-30T07:00:00,2,O3
38011005,IGUESTE,INDUSTRIAL,28.38054,-16.37199,true,2025-09-30T07:00:00,2,O3
38011006,BARRANCO HONDO,INDUSTRIAL,28.39341,-16.3581,true,2025-09-30T07:00:00,2,O3
38011007,DEPÓSITO LA GUANCHA-CANDELARIA,INDUSTRIAL,28.38016,-16.36833,true,2025-09-30T07:00:00,2,O3
38017001,MÉDANO,INDUSTRIAL,28.04733,-16.53605,true,2025-09-30T07:00:00,3,PM10
38017002,SAN ISIDRO,INDUSTRIAL,28.08001,-16.55986,true,2025-09-30T07:00:00,20,PM10
38017003,GRANADILLA,INDUSTRIAL,28.11249,-16.57758,true,2025-09-30T07:00:00,10,PM10
38031001,BALSA DE ZAMORA-LOS REALEJOS,FONDO,28.3831,-16.57067,true,2025-09-30T07:00:00,2,O3
38033001,LAS BALSAS-S.ANDRÉS Y SAUCES,FONDO,28.8051,-17.78255,true,2025-09-30T07:00:00,2,O3
38036001,RESIDENCIA ESCOLAR-SS GOMERA,FONDO,28.09905,-17.12051,true,2025-09-30T07:00:00,2,O3
38036002,LAS GALANAS -SS GOMERA,INDUSTRIAL,28.09012,-17.1181,true,2025-09-30T07:00:00,20,O3
38036004,CENTRO DE VISITANTES,INDUSTRIAL,28.0892,-17.1126,true,2025-09-30T07:00:00,1,SO2
38037001,EL PILAR-STA CRUZ DE LA PALMA,INDUSTRIAL,28.68598,-17.76459,true,2025-09-30T07:00:00,2,O3
38038010,TOME CANO,INDUSTRIAL,28.4616,-16.2623,true,2025-09-30T07:00:00,2,O3
38038012,CASA CUNA,INDUSTRIAL,28.45102,-16.27769,true,2025-09-30T07:00:00,2,O3
38038021,VUELTA LOS PÁJAROS-STA CRUZ DE TF,INDUSTRIAL,28.46179,-16.27662,false,2025-09-30T07:00:00,,
38038022,DEPÓSITO TRISTÁN-STA CRUZ DE TF,FONDO,28.45816,-16.27878,true,2025-09-30T07:00:00,2,O3
38038023,PISCINA MUNICIPAL-STA CRUZ DE TF,INDUSTRIAL,28.45795,-16.26333,true,2025-09-30T07:00:00,2,O3
38038024,TENA ARTIGAS-STA CRUZ DE TENERIFE,FONDO,28.45538,-16.27675,true,2025-09-30T07:00:00,1,O3
38038025,GARCÍA ESCÁMEZ-STA CRUZ DE TF,INDUSTRIAL,28.45666,-16.27184,true,2025-09-30T07:00:00,,
38038026,PARQUE LA GRANJA-STA CRUZ DE TF,INDUSTRIAL,28.46301,-16.26488,true,2025-09-30T07:00:00,,
38038027,TIO PINO-STA CRUZ DE TENERIFE,INDUSTRIAL,28.45931,-16.27021,true,2025-09-30T07:00:00,2,O3
38038034,BOMBEROS-PORTATIL 3,INDUSTRIAL,28.4583,-16.2609,false,2025-09-30T07:00:00,,
38038035,AGENCIA TRIBUTARIA-PORTATIL 2,TRAFICO,28.4631,-16.2484,false,2025-09-30T07:00:00,0,
38048001,ECHEDO-VALVERDE,FONDO,27.83177,-17.92167,true,2025-09-30T07:00:00,2,O3
39008001,ESTACIÓN DEL MEDITERRANEO,INDUSTRIAL,43.40444,-3.84194,true,2025-09-30T07:00:00,1,PM10
39016003,PARQUE DE CROSS,INDUSTRIAL,43.42083,-3.84111,true,2025-09-30T07:00:00,1,PM10
39020001,CASTRO URDIALES,FONDO,43.3825,-3.22056,true,2025-09-30T07:00:00,10,O3
39025001,LOS CORRALES DE BUELNA,FONDO,43.26444,-4.06278,true,2025-09-30T07:00:00,1,PM10
39059001,REINOSA,FONDO,43.01194,-4.13556,true,2025-09-30T07:00:00,1,NO2
39075005,TETUÁN,FONDO,43.46778,-3.79028,true,2025-09-30T07:00:00,1,O3
39075006,SANTANDER CENTRO,TRAFICO,43.46056,-3.80861,true,2025-09-30T07:00:00,1,PM10
39086001,LOS TOJOS,FONDO,43.15333,-4.25306,true,2025-09-30T07:00:00,2,O3
39087003,ZAPATÓN,FONDO,43.34639,-4.06417,true,2025-09-30T07:00:00,1,PM10
39087004,BARREDA,TRAFICO,43.3675,-4.04278,true,2025-09-30T07:00:00,1,NO2
39087005,ESCUELA DE MINAS,FONDO,43.35583,-4.06361,true,2025-09-30T07:00:00,10,NO2
40194002,SEGOVIA 2,TRAFICO,40.95556,-4.11056,true,2025-09-30T07:00:00,2,NO2
41004006,ALCALÁ DE GUADAIRA,FONDO,37.34246,-5.83372,true,2025-09-30T07:00:00,2,PM10
41004007,LA LIEBRE 2,INDUSTRIAL,37.35944,-5.86911,true,2025-09-30T07:00:00,2,PM2.5
41038001,DOS HERMANAS,FONDO,37.28449,-5.91384,true,2025-09-30T07:00:00,2,NO2
41049001,COBRE LAS CRUCES,INDUSTRIAL,37.55502,-6.03616,true,2025-09-30T07:00:00,1,NO2
41059001,ALJARAFE,FONDO,37.34075,-6.04246,true,2025-09-30T07:00:00,1,PM10
41088001,SIERRA NORTE,FONDO,37.99435,-5.66687,true,2025-09-30T07:00:00,1,PM10
41091009,TORNEO,TRAFICO,37.39452,-6.0031,true,2025-09-30T07:00:00,2,PM10
41091010,LA RANILLA,TRAFICO,37.38425,-5.95962,true,2025-09-30T07:00:00,2,NO2
41091015,SANTA CLARA,FONDO,37.39831,-5.95165,true,2025-09-30T07:00:00,2,NO2
41091016,PRINCIPES,FONDO,37.37525,-6.00558,false,2025-09-30T07:00:00,0,
41091017,SAN JERÓNIMO,INDUSTRIAL,37.42986,-5.98039,true,2025-09-30T07:00:00,1,NO2
41091018,BERMEJALES,FONDO,37.34719,-5.97963,true,2025-09-30T07:00:00,2,NO2
41091019,CENTRO,FONDO,37.38808,-5.99149,true,2025-09-30T07:00:00,10,NO2
42124001,MURIEL DE LA FUENTE,FONDO,41.72361,-2.85694,false,2025-09-30T07:00:00,,
42173001,SORIA,TRAFICO,41.7667,-2.4667,true,2025-09-30T07:00:00,2,O3
43004005,ALCANAR (LLAR DE JUBILATS),INDUSTRIAL,40.55282,0.52998,true,2025-09-30T07:00:00,1,NO2
43005002,ALCOVER (MESTRAL),INDUSTRIAL,41.27838,1.17992,true,2025-09-30T07:00:00,2,O3
43013002,L'AMETLLA DE MAR (DEIXALLERIA),FONDO,40.90269,0.8098,true,2025-09-30T07:00:00,1,NO2
43014001,AMPOSTA (SANT DOMÈNEC - ITÀLIA),FONDO,40.7067,0.5817,false,2025-09-30T07:00:00,,
43044003,LA SÉNIA (REPETIDOR),FONDO,40.643,0.28845,true,2025-09-30T07:00:00,2,O3
43047001,CONSTANTÍ (GAUDÍ),INDUSTRIAL,41.15492,1.21772,true,2025-09-30T07:00:00,1,NO2
43064001,GANDESA (CREU ROJA),FONDO,41.0582,0.43971,true,2025-09-30T07:00:00,2,PM2.5
43070001,ELS GUIAMETS (CAMP DE FUTBOL),FONDO,41.10069,0.7551,true,2025-09-30T07:00:00,1,O3
43103001,PERAFORT (PUIGDELFÍ),INDUSTRIAL,41.19359,1.2367,true,2025-09-30T07:00:00,1,PM10
43123005,REUS (EL TALLAPEDRA),TRAFICO,41.15078,1.12017,true,2025-09-30T07:00:00,2,PM10
43148001,TARRAGONA (SANT SALVADOR),TRAFICO,41.15945,1.2397,true,2025-09-30T07:00:00,1,NO2
43148003,TARRAGONA (BONAVISTA),INDUSTRIAL,41.11588,1.19198,true,2025-09-30T07:00:00,2,PM10
43148022,TARRAGONA (UNIVERSITAT LABORAL),INDUSTRIAL,41.10368,1.20077,true,2025-09-30T07:00:00,2,NO2
43148028,TARRAGONA (PARC DE LA CIUTAT),FONDO,41.11739,1.24165,true,2025-09-30T07:00:00,2,NO2
43162001,VANDELLÒS I L'HOSPITALET DE L'INFANT (ELS DEDALTS),FONDO,41.00821,0.83108,true,2025-09-30T07:00:00,1,NO2
43162002,VANDELLÒS I L'HOSPITALET DE L'INFANT (VIVER),INDUSTRIAL,41.00951,0.91288,true,2025-09-30T07:00:00,10,NO2
43162005,VANDELLÒS I L'HOSPITALET DE L'INFANT (BARRANC DEL TERME),INDUSTRIAL,40.93955,0.83134,true,2025-09-30T07:00:00,1,NO2
43171001,VILA-SECA (RENFE),FONDO,41.112090852,1.151824406,false,2025-09-30T07:00:00,,
43171002,VILA-SECA (IES VILA-SECA),FONDO,41.10243,1.14955,true,2025-09-30T07:00:00,2,NO2
44051002,MONAGREGA,FONDO,40.94667,-0.29083,false,2025-09-30T07:00:00,10,O3
44067001,CASTELNOU,INDUSTRIAL,41.22528,-0.36472,false,2025-09-30T07:00:00,0,
44077001,LA CEROLLERA,INDUSTRIAL,40.84194,-0.0575,false,2025-09-30T07:00:00,,
44216001,TERUEL,FONDO,40.33639,-1.10667,true,2025-09-30T07:00:00,10,O3
45081004,ESTACIÓN DE LA SAGRA (ILLESCAS),FONDO,40.1192,-3.8328,true,2025-09-30T07:00:00,20,O3
45153999,SAN PABLO DE LOS MONTES,FONDO,39.54633,-4.35042,true,2025-09-30T07:00:00,1,O3
45165003,TALAVERA DE LA REINA,FONDO,39.9586,-4.8457,false,2025-09-30T07:00:00,,
45165004,TALAVERA DE LA REINA - PÍO XII,TRAFICO,39.9638,-4.8257,true,2025-09-30T07:00:00,20,O3
45168002,TOLEDO2,FONDO,39.8681,-4.0208,true,2025-09-30T07:00:00,10,PM2.5
45200001,LOS YÉBENES,FONDO,39.5769,-3.8652,true,2025-09-30T07:00:00,10,PM2.5
46010001,ALBALAT DELS TARONGERS,INDUSTRIAL,39.70528,-0.33667,true,2025-09-30T07:00:00,20,O3
46017002,ALZIRA,FONDO,39.15,-0.45778,true,2025-09-30T07:00:00,10,O3
46028001,ALGAR DE PALÀNCIA,FONDO,39.78222,-0.35917,true,2025-09-30T07:00:00,20,O3
46062001,BENIGANIM,FONDO,38.93472,-0.44139,true,2025-09-30T07:00:00,10,O3
46077006,BUÑOL CEMEX,INDUSTRIAL,39.42722,-0.78389,false,2025-09-30T07:00:00,20,O3
46078004,BURJASSOT - FACULTATS,TRAFICO,39.50944,-0.41778,true,2025-09-30T07:00:00,10,O3
46095001,CAUDETE DE LAS FUENTES,FONDO,39.55861,-1.28139,true,2025-09-30T07:00:00,20,O3
46099001,CORTES DE PALLÁS,FONDO,39.26083,-0.93444,true,2025-09-30T07:00:00,2,O3
46102002,QUART DE POBLET,TRAFICO,39.48111,-0.44722,true,2025-09-30T07:00:00,20,O3
46131002,GANDÍA,TRAFICO,38.96667,-0.19,true,2025-09-30T07:00:00,10,O3
46184002,ONTINYENT,FONDO,38.78806,-0.69722,true,2025-09-30T07:00:00,20,O3
46190005,PATERNA-CEAM,FONDO,39.55139,-0.46083,true,2025-09-30T07:00:00,20,O3
46220003,SAGUNT PORT,TRAFICO,39.66722,-0.23472,true,2025-09-30T07:00:00,20,O3
46220009,SAGUNT-NORD,FONDO,39.68472,-0.27889,true,2025-09-30T07:00:00,20,O3
46220010,SAGUNT CEA,INDUSTRIAL,39.63417,-0.26583,true,2025-09-30T07:00:00,20,O3
46242001,TORREBAJA,FONDO,40.09944,-1.25389,true,2025-09-30T07:00:00,10,O3
46244003,TORRENT-EL VEDAT,FONDO,39.42528,-0.4825,true,2025-09-30T07:00:00,20,O3
46250030,VALÈNCIA-PISTA DE SILLA,TRAFICO,39.45611,-0.37583,true,2025-09-30T07:00:00,20,O3
46250043,VALÈNCIA-VIVERS,FONDO,39.47806,-0.36833,true,2025-09-30T07:00:00,20,O3
46250046,VALÈNCIA-POLITÈCNIC,FONDO,39.4803,-0.3364,true,2025-09-30T07:00:00,20,O3
46250047,VALÈNCIA - AVD. FRANCIA,TRAFICO,39.4575,-0.34278,true,2025-09-30T07:00:00,20,O3
46250048,VALÈNCIA - MOLÍ DEL SOL,TRAFICO,39.4811,-0.4083,true,2025-09-30T07:00:00,0,
46250050,VALÈNCIA - BULEVARD SUD,TRAFICO,39.45028,-0.39639,true,2025-09-30T07:00:00,20,O3
46250054,VALÈNCIA-CENTRE,TRAFICO,39.44833,-0.37647,true,2025-09-30T07:00:00,1,PM10
46250055,VALÈNCIA OLIVERETA,TRAFICO,39.46922,-0.40605,true,2025-09-30T07:00:00,1,PM10
46256001,VILAMARXANT,FONDO,39.56472,-0.62556,true,2025-09-30T07:00:00,20,O3
46258001,VILLAR DEL ARZOBISPO,FONDO,39.70806,-0.83194,true,2025-09-30T07:00:00,20,O3
46263999,ZARRA,FONDO,39.08278,-1.10083,true,2025-09-30T07:00:00,2,O3
47085003,MEDINA DEL CAMPO,INDUSTRIAL,41.31639,-4.90917,true,2025-09-30T07:00:00,1,O3
47186022,RENAULT 1,INDUSTRIAL,41.6,-4.7325,false,2025-09-30T07:00:00,0,
47186025,ENERGYWORKS-VA 1,INDUSTRIAL,41.66639,-4.715,false,2025-09-30T07:00:00,2,O3
47186026,ENERGYWORKS-VA 2,INDUSTRIAL,41.68333,-4.74111,true,2025-09-30T07:00:00,2,O3
47186027,ARCO DE LADRILLO II,TRAFICO,41.6456,-4.7303,true,2025-09-30T07:00:00,2,PM10
47186029,VEGA SICILIA,TRAFICO,41.6206,-4.7467,true,2025-09-30T07:00:00,2,O3
47186030,PUENTE REGUERAL,INDUSTRIAL,41.6561,-4.7339,true,2025-09-30T07:00:00,20,PM2.5
47186031,LA RUBIA II,TRAFICO,41.63,-4.74056,true,2025-09-30T07:00:00,10,PM10
47186032,VALLADOLID SUR,TRAFICO,41.6142,-4.7722,true,2025-09-30T07:00:00,2,O3
48002001,ABANTO,INDUSTRIAL,43.32052,-3.07414,true,2025-09-30T07:00:00,2,NO2
48002002,LAS CARRERAS,INDUSTRIAL,43.31962,-3.0974,true,2025-09-30T07:00:00,1,NO2
48003001,ZELAIETA,FONDO,43.21901,-2.73453,true,2025-09-30T07:00:00,2,PM2.5
48013006,BARAKALDO,FONDO,43.2984,-2.9871,true,2025-09-30T07:00:00,20,PM10
48013007,CASTREJANA,INDUSTRIAL,43.25811,-2.97344,true,2025-09-30T07:00:00,1,O3
48015002,BASAURI,INDUSTRIAL,43.2411,-2.8837,true,2025-09-30T07:00:00,1,PM10
48020003,PARQUE EUROPA,FONDO,43.2549,-2.9023,true,2025-09-30T07:00:00,1,PM2.5
48020006,DIRECCIÓN DE SALUD,TRAFICO,43.25883,-2.94565,true,2025-09-30T07:00:00,1,PM2.5
48020062,MAZARREDO,TRAFICO,43.2675,-2.9352,true,2025-09-30T07:00:00,1,NO2
48020066,ARRAIZ,FONDO,43.24558,-2.96048,true,2025-09-30T07:00:00,2,O3
48027001,DURANGO,INDUSTRIAL,43.16832,-2.63794,true,2025-09-30T07:00:00,2,PM2.5
48044006,ALGORTA,FONDO,43.3621,-3.0228,true,2025-09-30T07:00:00,1,NO2
48059001,URKIOLA,FONDO,43.10049,-2.65088,true,2025-09-30T07:00:00,2,O3
48068001,MUNDAKA,FONDO,43.40592,-2.70318,true,2025-09-30T07:00:00,2,O3
48071002,MUSKIZ,INDUSTRIAL,43.32074,-3.11272,true,2025-09-30T07:00:00,1,O3
48071004,SAN JULIAN,INDUSTRIAL,43.33275,-3.11298,true,2025-09-30T07:00:00,1,O3
48082003,SERANTES,FONDO,43.33446,-3.06297,true,2025-09-30T07:00:00,2,O3
48082004,SANTURCE,FONDO,43.33306,-3.04256,true,2025-09-30T07:00:00,1,NO2
48084008,SESTAO,TRAFICO,43.30776,-2.99596,true,2025-09-30T07:00:00,1,NO2
48096001,ZALLA,FONDO,43.21291,-3.1344,true,2025-09-30T07:00:00,1,PM2.5
48902006,ERANDIO,TRAFICO,43.30268,-2.97724,true,2025-09-30T07:00:00,2,PM10
48904002,SANGRONIZ,TRAFICO,43.29846,-2.93038,true,2025-09-30T07:00:00,1,PM2.5
48913001,ZIERBANA,FONDO,43.35307,-3.08099,true,2025-09-30T07:00:00,2,NO2
49149999,PEÑAUSENDE,FONDO,41.23889,-5.89742,true,2025-09-30T07:00:00,1,O3
49275002,ZAMORA 2,TRAFICO,41.50972,-5.74639,true,2025-09-30T07:00:00,2,O3
50008001,ALAGÓN,TRAFICO,41.7628,-1.1433,true,2025-09-30T07:00:00,10,O3
50059001,BUJARALOZ,FONDO,41.5056,-0.1519,true,2025-09-30T07:00:00,1,O3
50067001,CALATAYUD,FONDO,41.35457,-1.65257,true,2025-09-30T07:00:00,20,O3
50101001,ESCATRÓN,INDUSTRIAL,41.28693,-0.32689,false,2025-09-30T07:00:00,0,
50297026,EL PICARRAL,TRAFICO,41.67028,-0.87111,true,2025-09-30T07:00:00,2,PM2.5
50297029,ROGER DE FLOR,TRAFICO,41.6514,-0.9161,true,2025-09-30T07:00:00,10,O3
50297032,JAIME FERRÁN,INDUSTRIAL,41.67417,-0.86417,true,2025-09-30T07:00:00,1,PM10
50297036,RENOVALES,FONDO,41.63528,-0.89361,true,2025-09-30T07:00:00,2,O3
50297037,LAS FUENTES,TRAFICO,41.64222,-0.86194,true,2025-09-30T07:00:00,1,O3
50297038,CENTRO,TRAFICO,41.64833,-0.88389,true,2025-09-30T07:00:00,1,O3
50297039,AVENIDA SORIA,TRAFICO,41.65917,-0.9068,true,2025-09-30T07:00:00,20,PM10
50297040,ACTUR,FONDO,41.6752,-0.8869,true,2025-09-30T07:00:00,1,NO2
51001001,PUERTO ESPAÑA,FONDO,35.893,-5.3147,true,2025-09-30T07:00:00,2,NO2
52001001,SSOO,TRAFICO,35.27306,-2.94083,true,2025-09-30T07:00:00,2,PM2.5
52001002,ETAP,FONDO,35.3097,-2.9569,true,2025-09-30T07:00:00,2,O3
99999989,UNIDAD MOVIL EL PASO,FONDO,28.65278,-17.88056,true,2025-09-30T07:00:00,1,SO2
